[
  {
    "name": "AdventHealth Ocala",
    "address": "1500 SW 1st Ave, Ocala, FL 34471",
    "phone": "(352) 351-7200",
    "website": "https://www.adventhealth.com/hospital/adventhealth-ocala",
    "lat": 29.1754201,
    "lng": -82.138703,
    "id": "adventhealth-ocala",
    "category": "Hospitals",
    "city": "Ocala",
    "state": "FL"
  },
  {
    "name": "HCA Florida Ocala Hospital",
    "address": "1431 SW 1st Ave, Ocala, FL 34471",
    "phone": "(352) 401-1000",
    "website": "https://www.hcafloridahealthcare.com/locations/ocala-hospital",
    "lat": 29.1749816,
    "lng": -82.136077,
    "id": "hca-florida-ocala-hospital",
    "category": "Hospitals",
    "city": "Ocala",
    "state": "FL"
  },
  {
    "name": "HCA Florida West Marion Hospital",
    "address": "4600 SW 46th Ct, Ocala, FL 34474",
    "phone": "(352) 291-3000",
    "website": "https://www.hcafloridahealthcare.com/locations/west-marion-hospital",
    "lat": 29.1419766,
    "lng": -82.2003968,
    "id": "hca-florida-west-marion-hospital",
    "category": "Hospitals",
    "city": "Ocala",
    "state": "FL"
  },
  {
    "name": "Kindred Hospital Ocala",
    "address": "1500 SW 1st Ave #5, Ocala, FL 34471",
    "phone": "(352) 671-3130",
    "website": "https://www.kindredhospitals.com/",
    "id": "kindred-hospital-ocala",
    "category": "Hospitals",
    "city": "Ocala",
    "state": "FL"
  },
  {
    "name": "The Vines Hospital",
    "address": "3130 SW 27th Ave, Ocala, FL 34471",
    "phone": "(352) 671-3130",
    "website": "https://thevineshospital.com",
    "lat": 29.1573012,
    "lng": -82.169035,
    "id": "the-vines-hospital",
    "category": "Hospitals",
    "city": "Ocala",
    "state": "FL"
  }
]