[
  {
    "id": "atv-off-road-adventure-tours-4822",
    "name": "ATV Off-Road Adventure Tours",
    "category": "Activities",
    "address": "Tours in Ocala National Forest by Appt.",
    "phone": "(352) 546-5514",
    "website": "www.ATVOffRoadAdventureTours.com",
    "city": "Ocala",
    "state": "FL",
    "lat": 29.28434134069832,
    "lng": -82.21611929484108
  },
  {
    "id": "belleview-cinemas-6066",
    "name": "Belleview Cinemas",
    "category": "Activities",
    "address": "10845 SE US Hwy. 441, Belleview",
    "phone": "(352) 245-7015",
    "website": "",
    "city": "Belleview",
    "state": "FL",
    "lat": 29.20143451348398,
    "lng": -82.07796924866999
  },
  {
    "id": "chuck-e--cheese-9566",
    "name": "Chuck E. Cheese",
    "category": "Activities",
    "address": "3500 SW College Rd., #200, Ocala",
    "phone": "(352) 622-6357",
    "website": "",
    "city": "Ocala",
    "state": "FL",
    "lat": 29.104505540663496,
    "lng": -82.14786648946024
  },
  {
    "id": "easy-street-family-fun-center-8145",
    "name": "Easy Street Family Fun Center",
    "category": "Activities",
    "address": "2727 SW 27th Ave., Ocala",
    "phone": "(352) 861-9700",
    "website": "www.FunWorks.com/EasyStreet",
    "city": "Ocala",
    "state": "FL",
    "lat": 29.150341044184675,
    "lng": -82.0525336697971
  },
  {
    "id": "marion-theatre-2322",
    "name": "Marion Theatre",
    "category": "Activities",
    "address": "50 S. Magnolia Ave., Ocala",
    "phone": "(352) 629-6300",
    "website": "www.MarionTheatre.org",
    "city": "Ocala",
    "state": "FL",
    "lat": 29.226998974167138,
    "lng": -82.04665089372058
  },
  {
    "id": "ocala-center-6-6721",
    "name": "Ocala Center 6",
    "category": "Activities",
    "address": "2021 Silver Springs Blvd., Ocala",
    "phone": "(352) 624-8798",
    "website": "",
    "city": "Ocala",
    "state": "FL",
    "lat": 29.108477337177625,
    "lng": -82.13673347506898
  },
  {
    "id": "ocala-drive-in-6043",
    "name": "Ocala Drive-in",
    "category": "Activities",
    "address": "4850 S. Pine Ave., Ocala",
    "phone": "(352) 629-1325",
    "website": "www.OcalaDriveIn.info",
    "city": "Ocala",
    "state": "FL",
    "lat": 29.21978488477841,
    "lng": -82.17559089906987
  },
  {
    "id": "ocala-gran-prix-1522",
    "name": "Ocala Gran Prix",
    "category": "Activities",
    "address": "4121 NW 44th Ave., Ocala",
    "phone": "(352) 291-0600",
    "website": "www.OcalaGranPrix.com",
    "city": "Ocala",
    "state": "FL",
    "lat": 29.28690572282845,
    "lng": -82.19266981495512
  },
  {
    "id": "painting-with-a-twist-4147",
    "name": "Painting With A Twist",
    "category": "Activities",
    "address": "4414 SW College Rd., Ocala",
    "phone": "(352) 368-7928",
    "website": "www.PaintingWithATwist.com/Ocala",
    "city": "Ocala",
    "state": "FL",
    "lat": 29.20448493491644,
    "lng": -82.04957209677521
  },
  {
    "id": "picasso-s-palette-6820",
    "name": "Picasso\u2019s Palette",
    "category": "Activities",
    "address": "106 SW 17th St., Ocala",
    "phone": "(352) 789-6670",
    "website": "www.PicassosPalette.com",
    "city": "Ocala",
    "state": "FL",
    "lat": 29.17796098836739,
    "lng": -82.18513260546987
  },
  {
    "id": "regal-hollywood-16-3153",
    "name": "Regal Hollywood 16",
    "category": "Activities",
    "address": "2801 SW 27th Ave., Ocala",
    "phone": "(352) 861-2699",
    "website": "",
    "city": "Ocala",
    "state": "FL",
    "lat": 29.280893326656486,
    "lng": -82.19514631977292
  },
  {
    "id": "skate-a-way-south-2518",
    "name": "Skate-A-Way South",
    "category": "Activities",
    "address": "2008 E. Silver Springs Blvd., Ocala",
    "phone": "(352) 672-8100",
    "website": "www.SkateAWaySouth.com",
    "city": "Ocala",
    "state": "FL",
    "lat": 29.16549761087858,
    "lng": -82.16742300211611
  },
  {
    "id": "skate-mania-2758",
    "name": "Skate Mania",
    "category": "Activities",
    "address": "5461 SE Maricamp Rd., Ocala",
    "phone": "(352) 624-4222",
    "website": "www.SkateMania.org",
    "city": "Ocala",
    "state": "FL",
    "lat": 29.255961955268546,
    "lng": -82.1899409097361
  },
  {
    "id": "wayne-s-world-of-paintball-6846",
    "name": "Wayne\u2019s World of Paintball",
    "category": "Activities",
    "address": "4841 S. Pine Ave., Ocala",
    "phone": "(352) 401-1801",
    "website": "www.Waynes-World.com",
    "city": "Ocala",
    "state": "FL",
    "lat": 29.129801257549456,
    "lng": -82.21331791289117
  },
  {
    "id": "silver-springs-state-park-1832",
    "name": "Silver Springs State Park",
    "category": "Activities",
    "address": "5656 E. Silver Springs Blvd., Silver Springs",
    "phone": "(352) 236-7148",
    "website": "www.SilverSprings.com",
    "city": "Silver Springs",
    "state": "FL",
    "lat": 29.25299099377109,
    "lng": -82.1962873762938
  },
  {
    "id": "wild-waters-6263",
    "name": "Wild Waters",
    "category": "Activities",
    "address": "5656 E. Silver Springs Blvd., Silver Springs",
    "phone": "(352) 877-2267",
    "website": "www.SilverSprings.com/wild-waters",
    "city": "Silver Springs",
    "state": "FL",
    "lat": 29.251841109564864,
    "lng": -82.14077339845845
  },
  {
    "id": "amf-galaxy-east-lanes-3379",
    "name": "AMF Galaxy East Lanes",
    "category": "Activities",
    "address": "3225 SE Maricamp Rd., Ocala",
    "phone": "(352) 694-1111",
    "website": "www.AMF.com/GalaxyEastLanes",
    "city": "Ocala",
    "state": "FL",
    "lat": 29.21235690518603,
    "lng": -82.17621398536939
  },
  {
    "id": "amf-galaxy-west-lanes-5358",
    "name": "AMF Galaxy West Lanes",
    "category": "Activities",
    "address": "1818 SW 17th St., Ocala",
    "phone": "(352) 732-0300",
    "website": "www.AMF.com/GalaxyWestLanes",
    "city": "Ocala",
    "state": "FL",
    "lat": 29.210503931093392,
    "lng": -82.08163546361239
  },
  {
    "id": "40-fathom-grotto-7338",
    "name": "40 Fathom Grotto",
    "category": "Activities",
    "address": "9487 NW 115th Ave., Ocala",
    "phone": "(352) 368-7974",
    "website": "www.40FathomGrotto.com",
    "city": "Ocala",
    "state": "FL",
    "lat": 29.235902940329126,
    "lng": -82.08814766736835
  },
  {
    "id": "grumpy-jerry-s-4095",
    "name": "Grumpy Jerry\u2019s",
    "category": "Activities",
    "address": "12180 SE 122nd Lane, Belleview",
    "phone": "(352) 245-3532",
    "website": "www.GrumpyJerrysFleaMarket.com",
    "city": "Belleview",
    "state": "FL",
    "lat": 29.185934417269237,
    "lng": -82.09268584508118
  },
  {
    "id": "i-75-super-flea-market-7715",
    "name": "I-75 Super Flea Market",
    "category": "Activities",
    "address": "4121 NW 44th Ave., Ocala",
    "phone": "(352) 351-9220",
    "website": "www.I75SuperFlea.com",
    "city": "Ocala",
    "state": "FL",
    "lat": 29.112594468852283,
    "lng": -82.23443482500808
  },
  {
    "id": "the-market-of-marion-5443",
    "name": "The Market of Marion",
    "category": "Activities",
    "address": "12888 SE US Hwy. 441, Belleview",
    "phone": "(352) 245-6766",
    "website": "www.TheMarketOfMarion.com",
    "city": "Belleview",
    "state": "FL",
    "lat": 29.114293453928504,
    "lng": -82.04372250235191
  },
  {
    "id": "baseline-golf-course---lighted-driving-range-1076",
    "name": "Baseline Golf Course & Lighted Driving Range",
    "category": "Activities",
    "address": "4255 SE 58th Ave., Ocala",
    "phone": "(352) 624-9990",
    "website": "www.BaselineGolfCourse.com",
    "city": "Ocala",
    "state": "FL",
    "lat": 29.134251166813023,
    "lng": -82.1348302638655
  },
  {
    "id": "candler-hills-golf---practice-facility-4667",
    "name": "Candler Hills Golf & Practice Facility",
    "category": "Activities",
    "address": "8137 SW 90th Terrace Rd., Ocala",
    "phone": "(352) 861-9712",
    "website": "www.CandlerHillsGolfClub.com",
    "city": "Ocala",
    "state": "FL",
    "lat": 29.23339803313537,
    "lng": -82.14692597691175
  },
  {
    "id": "country-club-at-silver-springs-shores-4306",
    "name": "Country Club at Silver Springs Shores",
    "category": "Activities",
    "address": "633 Silver Rd., Silver Springs",
    "phone": "(352) 687-2828",
    "website": "www.SilverSpringsGolfCC.com",
    "city": "Silver Springs",
    "state": "FL",
    "lat": 29.14648367997861,
    "lng": -82.08088020334336
  },
  {
    "id": "del-web-spruce-creek-eagle-ridge-golf-club-9750",
    "name": "Del Web Spruce Creek Eagle Ridge Golf Club",
    "category": "Activities",
    "address": "13605 Del Webb Blvd., Summerfield",
    "phone": "(352) 307-1668",
    "website": "www.PlayEagleRidgeGolf.com",
    "city": "Summerfield",
    "state": "FL",
    "lat": 29.21017941176362,
    "lng": -82.1917096307853
  },
  {
    "id": "grand-lake-rv---golf-resort-7089",
    "name": "Grand Lake RV & Golf Resort",
    "category": "Activities",
    "address": "18545 NW 45th Avenue Rd., Citra",
    "phone": "(888) 484-4720",
    "website": "www.GrandLakeResort.com",
    "city": "Citra",
    "state": "FL",
    "lat": 29.150837290840403,
    "lng": -82.18212709650749
  },
  {
    "id": "huntington-golf-club-3124",
    "name": "Huntington Golf Club",
    "category": "Activities",
    "address": "799 Marion Oaks Manor, Ocala",
    "phone": "(352) 347-3333",
    "website": "www.HuntingtonGolfClub.com",
    "city": "Ocala",
    "state": "FL",
    "lat": 29.190955603394883,
    "lng": -82.14672829638063
  },
  {
    "id": "juliette-falls-3376",
    "name": "Juliette Falls",
    "category": "Activities",
    "address": "6933 SW 179th Ave Rd., Dunnellon",
    "phone": "(352) 522-0309",
    "website": "www.JulietteFalls.com",
    "city": "Dunnellon",
    "state": "FL",
    "lat": 29.135565944850597,
    "lng": -82.04710478772975
  },
  {
    "id": "lake-diamond-golf---country-club-1975",
    "name": "Lake Diamond Golf & Country Club",
    "category": "Activities",
    "address": "16 Golf View Dr., Ocala",
    "phone": "(352) 687-1000",
    "website": "",
    "city": "Ocala",
    "state": "FL",
    "lat": 29.205918302996118,
    "lng": -82.0404749632346
  },
  {
    "id": "marion-oaks-golf---country-club-8631",
    "name": "Marion Oaks Golf & Country Club",
    "category": "Activities",
    "address": "430 Marion Oaks Golf Way, Ocala",
    "phone": "(352) 347-1271",
    "website": "www.MarionOaksCountryClub.com",
    "city": "Ocala",
    "state": "FL",
    "lat": 29.17937323371769,
    "lng": -82.05134614835124
  },
  {
    "id": "mellex-golf-center-7973",
    "name": "Mellex Golf Center",
    "category": "Activities",
    "address": "6875 SW Hwy. 200, Ocala",
    "phone": "(352) 789-0841",
    "website": "",
    "city": "Ocala",
    "state": "FL",
    "lat": 29.215343420657632,
    "lng": -82.05009302871096
  },
  {
    "id": "ocala-golf-club-2433",
    "name": "Ocala Golf Club",
    "category": "Activities",
    "address": "3130 E. Silver Springs Blvd., Ocala",
    "phone": "(352) 401-6917",
    "website": "www.OcalaGolfClub.com",
    "city": "Ocala",
    "state": "FL",
    "lat": 29.219510794371175,
    "lng": -82.05372329345902
  },
  {
    "id": "ocala-national-golf-club-5381",
    "name": "Ocala National Golf Club",
    "category": "Activities",
    "address": "4782 NW 80th Ave., Ocala",
    "phone": "(352) 629-7981",
    "website": "www.OcalaNational.com",
    "city": "Ocala",
    "state": "FL",
    "lat": 29.26082798354265,
    "lng": -82.0794950215324
  },
  {
    "id": "circle-square-cultural-center-at-on-top-of-the-world-4600",
    "name": "Circle Square Cultural Center at On Top of the World",
    "category": "Arts & Culture",
    "address": "8395 SW 80th St., Ocala",
    "phone": "(352) 854-3670",
    "website": "www.CSCulturalCenter.com",
    "city": "Ocala",
    "state": "FL",
    "lat": 29.199113959504757,
    "lng": -82.0960869804198
  },
  {
    "id": "citizen-s-circle--feel-downtown-live--4600",
    "name": "Citizen\u2019s Circle \u201cFeel Downtown Live\u201d",
    "category": "Arts & Culture",
    "address": "151 SE Osceola Ave., Ocala",
    "phone": "(352) 401-3980",
    "website": "www.FeelDowntownOcala.com",
    "city": "Ocala",
    "state": "FL",
    "lat": 29.18162030874052,
    "lng": -82.13710955968163
  },
  {
    "id": "orange-blossom-opry-6182",
    "name": "Orange Blossom Opry",
    "category": "Arts & Culture",
    "address": "16439 SE Hwy. 42, Weirsdale",
    "phone": "(352) 821-1201",
    "website": "www.OB0pry.com",
    "city": "Weirsdale",
    "state": "FL",
    "lat": 29.204556102109937,
    "lng": -82.08658722280515
  },
  {
    "id": "appleton-museum-of-art-4250",
    "name": "Appleton Museum of Art",
    "category": "Arts & Culture",
    "address": "4333 E. Silver Springs Blvd., Ocala",
    "phone": "(352) 291-4455",
    "website": "www.AppletonMuseum.org",
    "city": "Ocala",
    "state": "FL",
    "lat": 29.131707778344303,
    "lng": -82.21528686463326
  },
  {
    "id": "brick-city-center-for-the-arts-5970",
    "name": "Brick City Center for the Arts",
    "category": "Arts & Culture",
    "address": "23 SW Broadway, Ocala",
    "phone": "(352) 369-1500",
    "website": "www.MCAOcala.com",
    "city": "Ocala",
    "state": "FL",
    "lat": 29.28640472153105,
    "lng": -82.12051842644571
  },
  {
    "id": "my-discovery-center-4448",
    "name": "My Discovery Center",
    "category": "Arts & Culture",
    "address": "701 NE Sanchez Ave., Ocala",
    "phone": "(352) 401-3900",
    "website": "www.MyDiscoveryCenter.org",
    "city": "Ocala",
    "state": "FL",
    "lat": 29.112170465732127,
    "lng": -82.14019695046782
  },
  {
    "id": "don-garlits-museum-of-drag-racing-and-international-drag-racing-hall-of-fame-5828",
    "name": "Don Garlits Museum of Drag Racing and International Drag Racing Hall of Fame",
    "category": "Arts & Culture",
    "address": "13700 SW 16th Ave., Ocala",
    "phone": "(877) 271-3278",
    "website": "www.Garlits.com",
    "city": "Ocala",
    "state": "FL",
    "lat": 29.17539500709562,
    "lng": -82.12475708144659
  },
  {
    "id": "florida-carriage-museum--at-grand-oaks--2084",
    "name": "Florida Carriage Museum (at Grand Oaks)",
    "category": "Arts & Culture",
    "address": "3000 Marion County Rd., Weirsdale",
    "phone": "(352) 750-5500",
    "website": "www.TheGrandOaks.com",
    "city": "Weirsdale",
    "state": "FL",
    "lat": 29.122720181835916,
    "lng": -82.05664064036682
  },
  {
    "id": "florida-thoroughbred-breeders---owners-association-museum---art-gallery-5755",
    "name": "Florida Thoroughbred Breeders & Owners Association Museum & Art Gallery",
    "category": "Arts & Culture",
    "address": "801 SW 60th Ave., Ocala",
    "phone": "(352) 629-2160",
    "website": "www.FTBOA.com",
    "city": "Ocala",
    "state": "FL",
    "lat": 29.163228395815242,
    "lng": -82.12508861663271
  },
  {
    "id": "marion-county-s-museum-of-history---archaeology-5811",
    "name": "Marion County\u2019s Museum of History & Archaeology",
    "category": "Arts & Culture",
    "address": "307 SE 26th Ter., Ocala",
    "phone": "(352) 236-5245",
    "website": "www.MarionCountyArchaeology.com / MCMEA",
    "city": "Ocala",
    "state": "FL",
    "lat": 29.249505231666728,
    "lng": -82.04348311421545
  },
  {
    "id": "ocala-model-railroaders-9660",
    "name": "Ocala Model Railroaders",
    "category": "Arts & Culture",
    "address": "1247 NE 3rd St., Ocala",
    "phone": "(352) 401-0747",
    "website": "www.OcalaModelRailroaders.com",
    "city": "Ocala",
    "state": "FL",
    "lat": 29.275490229159523,
    "lng": -82.11860624623839
  },
  {
    "id": "silver-river-museum-6454",
    "name": "Silver River Museum",
    "category": "Arts & Culture",
    "address": "1445 NE 58th Ave., Ocala",
    "phone": "(352) 236-5401",
    "website": "www.SilverRiverMuseum.com",
    "city": "Ocala",
    "state": "FL",
    "lat": 29.100041593669648,
    "lng": -82.2158463304239
  },
  {
    "id": "webber-center-gallery-7383",
    "name": "Webber Center Gallery",
    "category": "Arts & Culture",
    "address": "3001 SW College Rd., Ocala",
    "phone": "(352) 873-5809",
    "website": "www.CF.edu",
    "city": "Ocala",
    "state": "FL",
    "lat": 29.238157852474878,
    "lng": -82.15142641656578
  },
  {
    "id": "college-of-central-florida-theatre-2670",
    "name": "College of Central Florida Theatre",
    "category": "Arts & Culture",
    "address": "3001 SW College Rd., Ocala",
    "phone": "(352) 873-5810",
    "website": "www.CF.edu",
    "city": "Ocala",
    "state": "FL",
    "lat": 29.201670830437035,
    "lng": -82.207982736985
  },
  {
    "id": "marion-ballet-theatre-7784",
    "name": "Marion Ballet Theatre",
    "category": "Arts & Culture",
    "address": "1713 SW 17th St., Ocala",
    "phone": "(352) 629-6155",
    "website": "www.MarionPerformingBallet.org",
    "city": "Ocala",
    "state": "FL",
    "lat": 29.097986561670357,
    "lng": -82.05949975831564
  },
  {
    "id": "ocala-civic-theatre-3859",
    "name": "Ocala Civic Theatre",
    "category": "Arts & Culture",
    "address": "4337 E. Silver Springs Blvd., Ocala",
    "phone": "(352) 236-2274",
    "website": "www.OcalaCivicTheatre.com",
    "city": "Ocala",
    "state": "FL",
    "lat": 29.210953013087988,
    "lng": -82.20559809129266
  },
  {
    "id": "ocala-symphony-orchestra-6930",
    "name": "Ocala Symphony Orchestra",
    "category": "Arts & Culture",
    "address": "820 SE Ft. King St., Ocala",
    "phone": "(352) 351-1606",
    "website": "www.OcalaSymphony.com",
    "city": "Ocala",
    "state": "FL",
    "lat": 29.170273867398816,
    "lng": -82.17439843200398
  },
  {
    "id": "carney-island-recreation---conservation-area--lake-weir-3354",
    "name": "Carney Island Recreation & Conservation Area, Lake Weir",
    "category": "Boating & Fishing",
    "address": "14215 SE 115th Ave., Ocklawaha",
    "phone": "(352) 671-8560",
    "website": "",
    "city": "Ocklawaha",
    "state": "FL",
    "lat": 29.121503616038385,
    "lng": -82.08881604295703
  },
  {
    "id": "eureka-east---west-boat-ramps--ocklawaha-river-5498",
    "name": "Eureka East & West Boat Ramps, Ocklawaha River",
    "category": "Boating & Fishing",
    "address": "West: 15968 NE 154th Street, Ft. McCoy",
    "phone": "(352) 671-8560",
    "website": "",
    "city": "Ft. McCoy",
    "state": "FL",
    "lat": 29.094410794732816,
    "lng": -82.21669205873283
  },
  {
    "id": "gores-landing-boat-ramp--ocklawaha-river-3481",
    "name": "Gores Landing Boat Ramp, Ocklawaha River",
    "category": "Boating & Fishing",
    "address": "13800 NE 98th St., Ft. McCoy",
    "phone": "(352) 671-8560",
    "website": "",
    "city": "Ft. McCoy",
    "state": "FL",
    "lat": 29.20617466375439,
    "lng": -82.09127073290628
  },
  {
    "id": "heagy-burry-park-boat-ramp--orange-lake-7250",
    "name": "Heagy Burry Park Boat Ramp, Orange Lake",
    "category": "Boating & Fishing",
    "address": "5040 NW 191st Street Rd., Orange Lake",
    "phone": "(352) 671-8560",
    "website": "",
    "city": "Orange Lake",
    "state": "FL",
    "lat": 29.19932768815269,
    "lng": -82.2095238006985
  },
  {
    "id": "hope-boat-ramp--lake-weir-2284",
    "name": "Hope Boat Ramp, Lake Weir",
    "category": "Boating & Fishing",
    "address": "11060 SE 115th Ave., Weirsdale",
    "phone": "(352) 671-8560",
    "website": "",
    "city": "Weirsdale",
    "state": "FL",
    "lat": 29.130616037446952,
    "lng": -82.15915518200569
  },
  {
    "id": "kp-hole-park-boat-ramp--rainbow-river-8905",
    "name": "KP Hole Park Boat Ramp, Rainbow River",
    "category": "Boating & Fishing",
    "address": "9435 SW 190th Avenue Rd., Dunnellon",
    "phone": "(352) 489-3055",
    "website": "www.KPHole.com",
    "city": "Dunnellon",
    "state": "FL",
    "lat": 29.28698690937117,
    "lng": -82.2205938637247
  },
  {
    "id": "lake-weir-boat-rentals-4349",
    "name": "Lake Weir Boat Rentals",
    "category": "Boating & Fishing",
    "address": "12850 SE Hwy. 25, Ocklawaha",
    "phone": "(352) 288-1301",
    "website": "www.LakeWeirBoatRentals.com",
    "city": "Ocklawaha",
    "state": "FL",
    "lat": 29.282222708253645,
    "lng": -82.21285427470089
  },
  {
    "id": "moss-bluff---north---south-boat-ramp--ocklawaha-river-5686",
    "name": "Moss Bluff \u2013 North & South Boat Ramp, Ocklawaha River",
    "category": "Boating & Fishing",
    "address": "South: 16255 SE 95th Pl., Ocklawaha",
    "phone": "(352) 671-8560",
    "website": "",
    "city": "Ocklawaha",
    "state": "FL",
    "lat": 29.16598843791099,
    "lng": -82.23108465287211
  },
  {
    "id": "orange-springs-boat-ramp--ocklawaha-river-6585",
    "name": "Orange Springs Boat Ramp, Ocklawaha River",
    "category": "Boating & Fishing",
    "address": "14620 NE 245th Street Rd., Orange Springs",
    "phone": "(352) 671-8560",
    "website": "",
    "city": "Orange Springs",
    "state": "FL",
    "lat": 29.242423827265483,
    "lng": -82.0511689829973
  },
  {
    "id": "ray-wayside-park-boat-ramp--ocala-boat-basin--9804",
    "name": "Ray Wayside Park Boat Ramp (Ocala Boat Basin)",
    "category": "Boating & Fishing",
    "address": "9560 NE 28th Ln., Silver Springs",
    "phone": "(352) 671-8560",
    "website": "",
    "city": "Silver Springs",
    "state": "FL",
    "lat": 29.181050221596177,
    "lng": -82.22051293416833
  },
  {
    "id": "withlacoochee---rainbow-river-boat-ramp-3882",
    "name": "Withlacoochee & Rainbow River Boat Ramp",
    "category": "Boating & Fishing",
    "address": "Dunnellon City Hall, 20750 River Dr., Dunnellon",
    "phone": "(352) 732-1225",
    "website": "",
    "city": "Dunnellon",
    "state": "FL",
    "lat": 29.194468723809187,
    "lng": -82.07953512460695
  },
  {
    "id": "florida-horse-park-6763",
    "name": "Florida Horse Park",
    "category": "Equine",
    "address": "11008 S. Hwy. 475, Ocala",
    "phone": "(352) 307-6699",
    "website": "www.FLHorsePark.com",
    "city": "Ocala",
    "state": "FL",
    "lat": 29.25660275241426,
    "lng": -82.04881100470672
  },
  {
    "id": "grand-oaks-resort-3108",
    "name": "Grand Oaks Resort",
    "category": "Equine",
    "address": "3000 Marion County Rd., Weirsdale",
    "phone": "(352) 750-5500",
    "website": "www.TheGrandOaks.com",
    "city": "Weirsdale",
    "state": "FL",
    "lat": 29.09381532034513,
    "lng": -82.10664165579841
  },
  {
    "id": "ocala-breeders--sales-7884",
    "name": "Ocala Breeders\u2019 Sales",
    "category": "Equine",
    "address": "1701 SW 60th Ave., Ocala",
    "phone": "(352) 237-2154",
    "website": "www.OBSSales.com",
    "city": "Ocala",
    "state": "FL",
    "lat": 29.23760434990464,
    "lng": -82.05155626460879
  },
  {
    "id": "southeastern-livestock-pavilion-6948",
    "name": "Southeastern Livestock Pavilion",
    "category": "Equine",
    "address": "2232 NE Jacksonville Rd., Ocala",
    "phone": "(352) 671-8600",
    "website": "",
    "city": "Ocala",
    "state": "FL",
    "lat": 29.225767830477068,
    "lng": -82.17286949466424
  },
  {
    "id": "american-eagle-farm-4456",
    "name": "American Eagle Farm",
    "category": "Equine",
    "address": "8762 NW Hwy. 225A, Ocala",
    "phone": "(352) 895-8900",
    "website": "",
    "city": "Ocala",
    "state": "FL",
    "lat": 29.259028398084844,
    "lng": -82.16977872574851
  },
  {
    "id": "bluffview-clydesdales-friesians-8553",
    "name": "Bluffview Clydesdales/Friesians",
    "category": "Equine",
    "address": "1040 SE 59th St., Ocala",
    "phone": "(352) 861-7770",
    "website": "www.FriesianUSA.com",
    "city": "Ocala",
    "state": "FL",
    "lat": 29.14461417708773,
    "lng": -82.19999642440875
  },
  {
    "id": "bonheur-farm-9372",
    "name": "Bonheur Farm",
    "category": "Equine",
    "address": "1951 NW 114 Loop, Ocala",
    "phone": "(352) 427-7345",
    "website": "Facebook \u2014 BonheurFarm/Ocala",
    "city": "Ocala",
    "state": "FL",
    "lat": 29.22582455911376,
    "lng": -82.1612071233923
  },
  {
    "id": "bridlewood-farm-3862",
    "name": "Bridlewood Farm",
    "category": "Equine",
    "address": "8318 NW 90th Ter., Ocala",
    "phone": "(352) 622-5319",
    "website": "www.BridlewoodFarm.com",
    "city": "Ocala",
    "state": "FL",
    "lat": 29.09888978477027,
    "lng": -82.14179565407005
  },
  {
    "id": "buena-vista-farm-7922",
    "name": "Buena Vista Farm",
    "category": "Equine",
    "address": "11122 W. Hwy. 326, Ocala",
    "phone": "(352) 622-9100",
    "website": "www.BuenaVistaFarm.org",
    "city": "Ocala",
    "state": "FL",
    "lat": 29.102718192897857,
    "lng": -82.05331919260128
  },
  {
    "id": "cav-i-farm-3737",
    "name": "Cav-i Farm",
    "category": "Equine",
    "address": "13449 NW 82nd Street Rd., Ocala",
    "phone": "(352) 875-9686",
    "website": "www.Cav-i.com",
    "city": "Ocala",
    "state": "FL",
    "lat": 29.144765782821644,
    "lng": -82.07924896391188
  },
  {
    "id": "country-road-farm-6293",
    "name": "Country Road Farm",
    "category": "Equine",
    "address": "8205 NW Hwy. 225, Ocala",
    "phone": "(352) 351-2040",
    "website": "www.Horsepital.com",
    "city": "Ocala",
    "state": "FL",
    "lat": 29.237819709778226,
    "lng": -82.1368397273466
  },
  {
    "id": "eddie-woods-stables-1268",
    "name": "Eddie Woods Stables",
    "category": "Equine",
    "address": "14840 W. Hwy. 40, Ocala",
    "phone": "(352) 489-8915",
    "website": "www.EddieWoods.com",
    "city": "Ocala",
    "state": "FL",
    "lat": 29.27758107698972,
    "lng": -82.10551013213038
  },
  {
    "id": "fogg-road-farm-9940",
    "name": "Fogg Road Farm",
    "category": "Equine",
    "address": "12550 NW 110th Ave., Reddick",
    "phone": "(352) 266-8760",
    "website": "",
    "city": "Reddick",
    "state": "FL",
    "lat": 29.25075712738526,
    "lng": -82.0744638861776
  },
  {
    "id": "goldmark-farm-7055",
    "name": "Goldmark Farm",
    "category": "Equine",
    "address": "5290 NW 130th Ave., Ocala",
    "phone": "(352) 369-3377",
    "website": "www.GoldmarkFarm.com",
    "city": "Ocala",
    "state": "FL",
    "lat": 29.274596232055696,
    "lng": -82.05478765664077
  },
  {
    "id": "grey-dawn-stables-5841",
    "name": "Grey Dawn Stables",
    "category": "Equine",
    "address": "201 SE 90th St., Ocala",
    "phone": "(352) 427-9721",
    "website": "www.GreyDawnStables.com",
    "city": "Ocala",
    "state": "FL",
    "lat": 29.250324949188524,
    "lng": -82.16666860516683
  },
  {
    "id": "gypsy-gold-farm-7612",
    "name": "Gypsy Gold Farm",
    "category": "Equine",
    "address": "12501 SW 8th Ave., Ocala (Tours by Appt.)",
    "phone": "(352) 307-1999",
    "website": "www.GypsyGold.com",
    "city": "Ocala (Tours by Appt.)",
    "state": "FL",
    "lat": 29.188866432105833,
    "lng": -82.0462961840823
  },
  {
    "id": "hartley-de-renzo-thoroughbreds-1809",
    "name": "Hartley/De Renzo Thoroughbreds",
    "category": "Equine",
    "address": "6500 NW Hwy. 225A, Ocala",
    "phone": "(352) 732-8878",
    "website": "www.HartleyDeRenzo.com",
    "city": "Ocala",
    "state": "FL",
    "lat": 29.117632704405324,
    "lng": -82.19213962067077
  },
  {
    "id": "hits-post-time-farm-9006",
    "name": "HITS Post Time Farm",
    "category": "Equine",
    "address": "13710 US Hwy. 27, Ocala (January\u2013March)",
    "phone": "(352) 620-2275",
    "website": "www.HITSShows.com",
    "city": "Ocala (January\u2013March)",
    "state": "FL",
    "lat": 29.27032427638455,
    "lng": -82.15364569566734
  },
  {
    "id": "journeyman-stud-6421",
    "name": "Journeyman Stud",
    "category": "Equine",
    "address": "5571 NW 100th St., Ocala",
    "phone": "(352) 629-1200",
    "website": "www.JourneymanBloodstock.com",
    "city": "Ocala",
    "state": "FL",
    "lat": 29.120588141683484,
    "lng": -82.13077159569438
  },
  {
    "id": "lone-palm-stables-3483",
    "name": "Lone Palm Stables",
    "category": "Equine",
    "address": "6555 SW 66th St., Ocala",
    "phone": "(352) 598-4552",
    "website": "www.LonePalmStables.net",
    "city": "Ocala",
    "state": "FL",
    "lat": 29.189752613953704,
    "lng": -82.23925751272174
  },
  {
    "id": "new-england-shire-centre-5557",
    "name": "New England Shire Centre",
    "category": "Equine",
    "address": "4877 SW 134th Ter., Ocala",
    "phone": "(352) 873-3005",
    "website": "www.OcalaMarion.com/Partner/New-England-Shire-Center",
    "city": "Ocala",
    "state": "FL",
    "lat": 29.140194860460937,
    "lng": -82.08759990155009
  },
  {
    "id": "ocala-stud-farm-1593",
    "name": "Ocala Stud Farm",
    "category": "Equine",
    "address": "4400 SW 27th Ave., Ocala",
    "phone": "(352) 237-2171",
    "website": "www.OcalaStud.com",
    "city": "Ocala",
    "state": "FL",
    "lat": 29.196295123419286,
    "lng": -82.15859926406945
  },
  {
    "id": "signature-stallions-1943",
    "name": "Signature Stallions",
    "category": "Equine",
    "address": "7100 NW 110th St., Reddick",
    "phone": "(352) 369-1900",
    "website": "www.SignatureStallions.com",
    "city": "Reddick",
    "state": "FL",
    "lat": 29.259662427790474,
    "lng": -82.15912796064715
  },
  {
    "id": "superfine-farm-6403",
    "name": "Superfine Farm",
    "category": "Equine",
    "address": "17250 SW 90th St., Ocala",
    "phone": "(352) 854-4556",
    "website": "",
    "city": "Ocala",
    "state": "FL",
    "lat": 29.17730448678848,
    "lng": -82.13371727072295
  },
  {
    "id": "the-equine-inn--llc-3719",
    "name": "The Equine Inn, LLC",
    "category": "Equine",
    "address": "13050 NW 97th Pl., Ocala",
    "phone": "(352) 433-3343",
    "website": "www.TheEquineInn.com",
    "city": "Ocala",
    "state": "FL",
    "lat": 29.231559637422563,
    "lng": -82.22587402529534
  },
  {
    "id": "twin-stars-equine--llc-3158",
    "name": "Twin Stars Equine, LLC",
    "category": "Equine",
    "address": "13729 NW 82nd Street Rd., Ocala",
    "phone": "(352) 209-5380",
    "website": "",
    "city": "Ocala",
    "state": "FL",
    "lat": 29.105817669219753,
    "lng": -82.20759812186397
  },
  {
    "id": "uf-ifas-equine-sciences-center-8645",
    "name": "UF/IFAS Equine Sciences Center",
    "category": "Equine",
    "address": "2651 NW 100th St., Ocala",
    "phone": "(352) 222-8284",
    "website": "www.UFAL.edu",
    "city": "Ocala",
    "state": "FL",
    "lat": 29.122931320130057,
    "lng": -82.13395466599786
  },
  {
    "id": "winning-colors-paso-finos-7614",
    "name": "Winning Colors Paso Finos",
    "category": "Equine",
    "address": "5040 NW 110th Ave., Anthony",
    "phone": "(352) 622-1190",
    "website": "www.WinningColorsFinos.com",
    "city": "Anthony",
    "state": "FL",
    "lat": 29.239108049180853,
    "lng": -82.11105735296654
  },
  {
    "id": "woodside-ranch-4001",
    "name": "Woodside Ranch",
    "category": "Equine",
    "address": "11850 NE Hwy. 315, Ft. McCoy",
    "phone": "(352) 236-1076",
    "website": "",
    "city": "Ft. McCoy",
    "state": "FL",
    "lat": 29.127508356920323,
    "lng": -82.16345410621616
  },
  {
    "id": "zoccolo-de-danza-7867",
    "name": "Zoccolo De Danza",
    "category": "Equine",
    "address": "17321 SE 150th Avenue Rd., Weirsdale",
    "phone": "(352) 324-4581",
    "website": "",
    "city": "Weirsdale",
    "state": "FL",
    "lat": 29.24828738538699,
    "lng": -82.20132756371193
  },
  {
    "id": "cactus-jack-s-trail-rides-3420",
    "name": "Cactus Jack\u2019s Trail Rides",
    "category": "Horseback Riding & Guided Tours",
    "address": "11150 SW 16th Ave., Ocala",
    "phone": "(352) 266-9326",
    "website": "www.CactusJacksTrailRides.com",
    "city": "Ocala",
    "state": "FL",
    "lat": 29.20974792779964,
    "lng": -82.12217632965562
  },
  {
    "id": "chasin--a-dream-farm-2813",
    "name": "Chasin\u2019 A Dream Farm",
    "category": "Horseback Riding & Guided Tours",
    "address": "9330 NW 110th Ave., Ocala (Tours by Appt.)",
    "phone": "(352) 208-3701",
    "website": "www.ChasinADream.com",
    "city": "Ocala (Tours by Appt.)",
    "state": "FL",
    "lat": 29.264156893749696,
    "lng": -82.04977126394674
  },
  {
    "id": "farm-tours-of-ocala-3837",
    "name": "Farm Tours of Ocala",
    "category": "Horseback Riding & Guided Tours",
    "address": "801 SW 60th Ave., Ocala (Reservations)",
    "phone": "(352) 895-9302",
    "website": "www.FarmToursOfOcala.com",
    "city": "Ocala (Reservations)",
    "state": "FL",
    "lat": 29.268997666794114,
    "lng": -82.06383392064072
  },
  {
    "id": "happy-acres-ranch-4239",
    "name": "Happy Acres Ranch",
    "category": "Horseback Riding & Guided Tours",
    "address": "10051 SW 125th Ter., Dunnellon",
    "phone": "(352) 489-8550",
    "website": "www.OcalaHappyAcres.com",
    "city": "Dunnellon",
    "state": "FL",
    "lat": 29.114342186963032,
    "lng": -82.05872820877205
  },
  {
    "id": "hidden-lark-farm-8104",
    "name": "Hidden Lark Farm",
    "category": "Horseback Riding & Guided Tours",
    "address": "4990 SW 7th Ave Rd., Ocala (Trail Rides by Appt.)",
    "phone": "(352) 854-5151",
    "website": "www.HiddenLarkFarm.net",
    "city": "Ocala (Trail Rides by Appt.)",
    "state": "FL",
    "lat": 29.13339834943281,
    "lng": -82.09981730323585
  },
  {
    "id": "horse-country-carriage-co----tours-7235",
    "name": "Horse Country Carriage Co. & Tours",
    "category": "Horseback Riding & Guided Tours",
    "address": "5400 NW 110th Ave., Ocala (Horse Farm Tours by Carriage. Call for Reservations.)",
    "phone": "(352) 727-0900",
    "website": "www.HorseCountryCarriageCompanyAndTours.com",
    "city": "Ocala (Horse Farm Tours by Carriage. Call for Reservations.)",
    "state": "FL",
    "lat": 29.13564283066723,
    "lng": -82.07752007816697
  },
  {
    "id": "makin--tracks-3480",
    "name": "Makin\u2019 Tracks",
    "category": "Horseback Riding & Guided Tours",
    "address": "15901 NE 137th Ct., Ft. McCoy (Guided Trail Rides by Appt. Ocala National Forest)",
    "phone": "(352) 236-3299",
    "website": "www.OcalaTrails.com",
    "city": "Ft. McCoy (Guided Trail Rides by Appt. Ocala National Forest)",
    "state": "FL",
    "lat": 29.252591505064288,
    "lng": -82.11355061651753
  },
  {
    "id": "north-star-acres-1044",
    "name": "North Star Acres",
    "category": "Horseback Riding & Guided Tours",
    "address": "9950 SE 125th Ct., Dunnellon (Guided Trail Rides by Reservation Only. Call for Appt.)",
    "phone": "(352) 489-4761",
    "website": "www.DunnellonBusiness.com/NorthStar",
    "city": "Dunnellon (Guided Trail Rides by Reservation Only. Call for Appt.)",
    "state": "FL",
    "lat": 29.217701583005926,
    "lng": -82.2272162569583
  },
  {
    "id": "the-canyons-zip-line---canopy-tours---horseback-riding-1063",
    "name": "The Canyons Zip Line & Canopy Tours / Horseback Riding",
    "category": "Horseback Riding & Guided Tours",
    "address": "8045 NW Gainesville Rd., Ocala",
    "phone": "(352) 351-9477",
    "website": "www.ZipTheCanyons.com",
    "city": "Ocala",
    "state": "FL",
    "lat": 29.250830036772097,
    "lng": -82.09112289124448
  },
  {
    "id": "carney-island-recreation---conservation-area-2982",
    "name": "Carney Island Recreation & Conservation Area",
    "category": "Nature",
    "address": "14215 SE 115th Ave., Ocklawaha",
    "phone": "(352) 671-8560",
    "website": "www.MarionCountyFL.org/Parks",
    "city": "Ocklawaha",
    "state": "FL",
    "lat": 29.244405772930712,
    "lng": -82.15679865003254
  },
  {
    "id": "cross-florida-greenway---santos-trailhead-1714",
    "name": "Cross Florida Greenway \u2013 Santos Trailhead",
    "category": "Nature",
    "address": "3080 SE 80th St., Ocala",
    "phone": "(352) 236-7143",
    "website": "www.FloridaGreenwaysAndTrails.com",
    "city": "Ocala",
    "state": "FL",
    "lat": 29.211992330583676,
    "lng": -82.07744443277873
  },
  {
    "id": "cross-florida-greenway---marshall-swamp-trailhead-2554",
    "name": "Cross Florida Greenway \u2013 Marshall Swamp Trailhead",
    "category": "Nature",
    "address": "4650 SE Maricamp Rd., Ocala",
    "phone": "(352) 236-7143",
    "website": "www.FloridaGreenwaysAndTrails.com",
    "city": "Ocala",
    "state": "FL",
    "lat": 29.23590324860465,
    "lng": -82.15735079650626
  },
  {
    "id": "cross-florida-greenway---ray-wayside-park-6558",
    "name": "Cross Florida Greenway \u2013 Ray Wayside Park",
    "category": "Nature",
    "address": "9560 NE 28th Ln., Silver Springs",
    "phone": "(352) 236-7143",
    "website": "www.FloridaGreenwaysAndTrails.com",
    "city": "Silver Springs",
    "state": "FL",
    "lat": 29.284354629624673,
    "lng": -82.18928065914565
  },
  {
    "id": "cross-florida-greenway---land-bridge-trailhead-6410",
    "name": "Cross Florida Greenway \u2013 Land Bridge Trailhead",
    "category": "Nature",
    "address": "11100 SW 16th Ave., Ocala",
    "phone": "(352) 236-7143",
    "website": "www.FloridaGreenwaysAndTrails.com",
    "city": "Ocala",
    "state": "FL",
    "lat": 29.1360513506227,
    "lng": -82.1963769108775
  },
  {
    "id": "cross-florida-greenway---49th-ave--trailhead-1675",
    "name": "Cross Florida Greenway \u2013 49th Ave. Trailhead",
    "category": "Nature",
    "address": "2135 NW 49th Ave., Ocala",
    "phone": "",
    "website": "www.FloridaGreenwaysAndTrails.com",
    "city": "Ocala",
    "state": "FL",
    "lat": 29.100225592948238,
    "lng": -82.06989578325269
  },
  {
    "id": "cross-florida-greenway---pruitt-trailhead-3195",
    "name": "Cross Florida Greenway \u2013 Pruitt Trailhead",
    "category": "Nature",
    "address": "15099 SW Hwy. 484, Dunnellon",
    "phone": "",
    "website": "www.FloridaGreenwaysAndTrails.com",
    "city": "Dunnellon",
    "state": "FL",
    "lat": 29.106817994159197,
    "lng": -82.09959026377622
  },
  {
    "id": "cross-florida-greenway---ross-prairie-trailhead-4819",
    "name": "Cross Florida Greenway \u2013 Ross Prairie Trailhead",
    "category": "Nature",
    "address": "10660 SW Hwy. 200, Dunnellon",
    "phone": "(352) 236-7143",
    "website": "www.FloridaGreenwaysAndTrails.com",
    "city": "Dunnellon",
    "state": "FL",
    "lat": 29.14801502634841,
    "lng": -82.14586086889251
  },
  {
    "id": "fort-king-national-historic-landmark-6580",
    "name": "Fort King National Historic Landmark",
    "category": "Nature",
    "address": "3925 E. Ft. King St., Ocala",
    "phone": "(352) 622-3244",
    "website": "www.FortKingOcala.com",
    "city": "Ocala",
    "state": "FL",
    "lat": 29.100288763898437,
    "lng": -82.14870555563095
  },
  {
    "id": "indian-lake-state-forest-trailhead-3225",
    "name": "Indian Lake State Forest Trailhead",
    "category": "Nature",
    "address": "1025 SE 150th Blvd., Silver Springs",
    "phone": "(352) 732-1225",
    "website": "www.FDACS.gov",
    "city": "Silver Springs",
    "state": "FL",
    "lat": 29.18181740874092,
    "lng": -82.1142621378164
  },
  {
    "id": "rainbow-springs-state-park-9175",
    "name": "Rainbow Springs State Park",
    "category": "Nature",
    "address": "19158 SW 81st Pl. Rd., Dunnellon",
    "phone": "(352) 465-8555",
    "website": "www.FloridaStateParks.org",
    "city": "Dunnellon",
    "state": "FL",
    "lat": 29.10555969573485,
    "lng": -82.05272476616032
  },
  {
    "id": "salt-springs-recreation-area-4321",
    "name": "Salt Springs Recreation Area",
    "category": "Nature",
    "address": "13851 N Hwy. 19, Salt Springs",
    "phone": "(352) 685-2048",
    "website": "www.Recreation.gov",
    "city": "Salt Springs",
    "state": "FL",
    "lat": 29.112844808620583,
    "lng": -82.21015192487968
  },
  {
    "id": "sholom-park-4979",
    "name": "Sholom Park",
    "category": "Nature",
    "address": "7110 SW 80th Ave., Ocala",
    "phone": "(352) 873-0848",
    "website": "www.SholomPark.com",
    "city": "Ocala",
    "state": "FL",
    "lat": 29.20801461347051,
    "lng": -82.0936471775502
  },
  {
    "id": "silver-springs-state-park-1936",
    "name": "Silver Springs State Park",
    "category": "Nature",
    "address": "5656 E Silver Springs Blvd., Silver Springs",
    "phone": "(352) 236-7148",
    "website": "www.SilverSprings.com",
    "city": "Silver Springs",
    "state": "FL",
    "lat": 29.17898044129892,
    "lng": -82.08993205553794
  },
  {
    "id": "silver-river-state-park-museum---environmental-education-center-7592",
    "name": "Silver River State Park Museum & Environmental Education Center",
    "category": "Nature",
    "address": "1445 NE 58th Ave., Ocala",
    "phone": "(352) 236-5401",
    "website": "www.SilverRiverMuseum.com",
    "city": "Ocala",
    "state": "FL",
    "lat": 29.256518154681967,
    "lng": -82.12498323648073
  },
  {
    "id": "venomous-reptile-teaching-facility---gerold-s-snakes-8871",
    "name": "Venomous Reptile Teaching Facility \u2013 Gerold\u2019s Snakes",
    "category": "Nature",
    "address": "11120 N. Magnolia Ave., Ocala",
    "phone": "(352) 612-1702",
    "website": "www.GeroldsSnakes.com",
    "city": "Ocala",
    "state": "FL",
    "lat": 29.125747929988584,
    "lng": -82.22514824112022
  },
  {
    "id": "endangered-animal-rescue-sanctuary--ears--4500",
    "name": "Endangered Animal Rescue Sanctuary (EARS)",
    "category": "Wildlife Sanctuaries",
    "address": "2615 E Hwy. 318, Citra",
    "phone": "(352) 732-3325",
    "website": "www.EARSInc.org",
    "city": "Citra",
    "state": "FL",
    "lat": 29.08914996665833,
    "lng": -82.08538824383272
  },
  {
    "id": "forest-animal-rescue-by-peace-river-refuge---ranch-2747",
    "name": "Forest Animal Rescue by Peace River Refuge & Ranch",
    "category": "Wildlife Sanctuaries",
    "address": "Ocala National Forest \u2014 Tours by Appointment Only",
    "phone": "(352) 625-7377",
    "website": "www.ForestAnimalRescue.org",
    "city": "Ocala",
    "state": "FL",
    "lat": 29.199185271191055,
    "lng": -82.16460628754056
  },
  {
    "id": "kirby-family-farm-5130",
    "name": "Kirby Family Farm",
    "category": "Wildlife Sanctuaries",
    "address": "19630 NE 30th Street, Williston",
    "phone": "(352) 812-7435",
    "website": "www.KirbyFarm.com",
    "city": "Williston",
    "state": "FL",
    "lat": 29.13401895692442,
    "lng": -82.14387069551185
  },
  {
    "id": "octagon-wildlife-sanctuary-5559",
    "name": "Octagon Wildlife Sanctuary",
    "category": "Wildlife Sanctuaries",
    "address": "41660 SW 36th Ter., Punta Gorda",
    "phone": "(941) 575-4343",
    "website": "www.OctagonWildlife.org",
    "city": "Punta Gorda",
    "state": "FL",
    "lat": 29.12684920819943,
    "lng": -82.19500541609406
  },
  {
    "id": "the-canyons-zip-line---adventure-park---wildlife-area-4418",
    "name": "The Canyons Zip Line & Adventure Park \u2013 Wildlife Area",
    "category": "Wildlife Sanctuaries",
    "address": "8045 NW Gainesville Rd., Ocala",
    "phone": "(352) 351-9477",
    "website": "www.ZipTheCanyons.com",
    "city": "Ocala",
    "state": "FL",
    "lat": 29.108889202971845,
    "lng": -82.15650656735721
  },
  {
    "id": "the-petting-zoo-ocala-7489",
    "name": "The Petting Zoo Ocala",
    "category": "Wildlife Sanctuaries",
    "address": "11150 SW 93rd Ct Rd., Ocala",
    "phone": "(352) 789-0813",
    "website": "Facebook: The Petting Zoo Ocala",
    "city": "Ocala",
    "state": "FL",
    "lat": 29.09206704296123,
    "lng": -82.23591496944685
  },
  {
    "id": "the-butterfly-rainforest--florida-museum-of-natural-history--7165",
    "name": "The Butterfly Rainforest (Florida Museum of Natural History)",
    "category": "Wildlife Sanctuaries",
    "address": "3215 Hull Rd., Gainesville",
    "phone": "(352) 846-2000",
    "website": "www.FloridaMuseum.ufl.edu",
    "city": "Gainesville",
    "state": "FL",
    "lat": 29.218525734362505,
    "lng": -82.09222677239586
  },
  {
    "id": "angell-s-mobile-marine-canvas-5281",
    "name": "Angell\u2019s Mobile Marine Canvas",
    "category": "Rentals & Charters",
    "address": "12385 SE 110th Ave., Belleview",
    "phone": "(352) 245-1861",
    "website": "Facebook: Angell\u2019s Mobile Marine Canvas",
    "city": "Belleview",
    "state": "FL",
    "lat": 29.103625269547226,
    "lng": -82.14025796869785
  },
  {
    "id": "big-sun-skate-shop---skateboard---equipment-rentals-7013",
    "name": "Big Sun Skate Shop \u2013 Skateboard & Equipment Rentals",
    "category": "Rentals & Charters",
    "address": "1220 SW 12th Street, Ocala",
    "phone": "(352) 236-6210",
    "website": "www.BigSunSkateShop.com",
    "city": "Ocala",
    "state": "FL",
    "lat": 29.25161841740351,
    "lng": -82.07888050479947
  },
  {
    "id": "blue-run-bicycles---bike-rentals---repairs-1548",
    "name": "Blue Run Bicycles \u2013 Bike Rentals & Repairs",
    "category": "Rentals & Charters",
    "address": "20799 Walnut St., Dunnellon",
    "phone": "(352) 465-7535",
    "website": "www.BlueRunBicycles.com",
    "city": "Dunnellon",
    "state": "FL",
    "lat": 29.165661929859795,
    "lng": -82.17455629070254
  },
  {
    "id": "cactus-jack-s-trail-rides---horseback-riding---guided-tours-7953",
    "name": "Cactus Jack\u2019s Trail Rides \u2013 Horseback Riding / Guided Tours",
    "category": "Rentals & Charters",
    "address": "11150 SW 16th Ave., Ocala",
    "phone": "(352) 266-9326",
    "website": "www.CactusJacksTrailRides.com",
    "city": "Ocala",
    "state": "FL",
    "lat": 29.119144939603764,
    "lng": -82.05928667320275
  },
  {
    "id": "discovery-bicycle-tours-3260",
    "name": "Discovery Bicycle Tours",
    "category": "Rentals & Charters",
    "address": "8045 NW Gainesville Rd., Ocala",
    "phone": "(800) 257-2226",
    "website": "www.DiscoveryBicycleTours.com",
    "city": "Ocala",
    "state": "FL",
    "lat": 29.22608713895137,
    "lng": -82.04605537202309
  },
  {
    "id": "florida-horse-park---facility-rentals-8264",
    "name": "Florida Horse Park \u2013 Facility Rentals",
    "category": "Rentals & Charters",
    "address": "11008 S. Hwy. 475, Ocala",
    "phone": "(352) 307-6699",
    "website": "www.FLHorsePark.com",
    "city": "Ocala",
    "state": "FL",
    "lat": 29.209676293109137,
    "lng": -82.15204770645116
  },
  {
    "id": "grand-oaks-resort---carriage-rentals---event-hosting-4672",
    "name": "Grand Oaks Resort \u2013 Carriage Rentals / Event Hosting",
    "category": "Rentals & Charters",
    "address": "3000 Marion County Rd., Weirsdale",
    "phone": "(352) 750-5500",
    "website": "www.TheGrandOaks.com",
    "city": "Weirsdale",
    "state": "FL",
    "lat": 29.266999510700362,
    "lng": -82.22041973962044
  },
  {
    "id": "lake-weir-boat-rentals-9089",
    "name": "Lake Weir Boat Rentals",
    "category": "Rentals & Charters",
    "address": "12850 SE Hwy. 25, Ocklawaha",
    "phone": "(352) 288-1301",
    "website": "www.LakeWeirBoatRentals.com",
    "city": "Ocklawaha",
    "state": "FL",
    "lat": 29.20337476241186,
    "lng": -82.13319123519832
  },
  {
    "id": "marion-county-parks---recreation---park-rentals-2086",
    "name": "Marion County Parks & Recreation \u2013 Park Rentals",
    "category": "Rentals & Charters",
    "address": "111 SE 25th Ave., Ocala",
    "phone": "(352) 671-8560",
    "website": "www.MarionCountyFL.org/Parks",
    "city": "Ocala",
    "state": "FL",
    "lat": 29.257133745755468,
    "lng": -82.1055281275439
  },
  {
    "id": "ocala-bike-center---bike-rentals---tours-6990",
    "name": "Ocala Bike Center \u2013 Bike Rentals & Tours",
    "category": "Rentals & Charters",
    "address": "1504 E. Silver Springs Blvd., Ocala",
    "phone": "(352) 351-3475",
    "website": "www.OcalaBikeCenter.com",
    "city": "Ocala",
    "state": "FL",
    "lat": 29.23554237130639,
    "lng": -82.10490862731389
  },
  {
    "id": "the-canyons-zip-line---adventure-park---horseback-riding---zipline-4048",
    "name": "The Canyons Zip Line & Adventure Park \u2013 Horseback Riding / Zipline",
    "category": "Rentals & Charters",
    "address": "8045 NW Gainesville Rd., Ocala",
    "phone": "(352) 351-9477",
    "website": "www.ZipTheCanyons.com",
    "city": "Ocala",
    "state": "FL",
    "lat": 29.096816365448426,
    "lng": -82.16726929198938
  },
  {
    "id": "wild-bills-airboat-tours---airboat-adventures-9936",
    "name": "Wild Bills Airboat Tours \u2013 Airboat Adventures",
    "category": "Rentals & Charters",
    "address": "12430 E Hwy. 40, Silver Springs",
    "phone": "(352) 726-6060",
    "website": "www.WildBillsAirboatTours.com",
    "city": "Silver Springs",
    "state": "FL",
    "lat": 29.232770318099885,
    "lng": -82.17271042398805
  },
  {
    "id": "blue-gator-tiki-bar---boat-rentals-5283",
    "name": "Blue Gator Tiki Bar & Boat Rentals",
    "category": "Rentals & Charters",
    "address": "12189 S Williams St., Dunnellon",
    "phone": "(352) 465-1635",
    "website": "www.BlueGatorTiki.com",
    "city": "Dunnellon",
    "state": "FL",
    "lat": 29.146875874558905,
    "lng": -82.14506259216388
  },
  {
    "id": "adventure-outpost-8356",
    "name": "Adventure Outpost",
    "category": "Canoe & Boat Rentals",
    "address": "30 NE 1st Ave., High Springs",
    "phone": "(386) 454-0611",
    "website": "www.AdventureOutpost.net",
    "city": "High Springs",
    "state": "FL",
    "lat": 29.103697207668038,
    "lng": -82.0594016683111
  },
  {
    "id": "angell-s-mobile-marine-canvas-4200",
    "name": "Angell\u2019s Mobile Marine Canvas",
    "category": "Canoe & Boat Rentals",
    "address": "12385 SE 110th Ave., Belleview",
    "phone": "(352) 245-1861",
    "website": "",
    "city": "Belleview",
    "state": "FL",
    "lat": 29.11109281311575,
    "lng": -82.09015752751675
  },
  {
    "id": "blue-run-of-dunnellon-park---kayak---tube-rentals--via-concession-rios-locais--4486",
    "name": "Blue Run of Dunnellon Park \u2013 Kayak & Tube Rentals (via concession\u00e1rios locais)",
    "category": "Canoe & Boat Rentals",
    "address": "19680 E Pennsylvania Ave., Dunnellon",
    "phone": "(352) 465-8510",
    "website": "Facebook: Blue Run of Dunnellon Park",
    "city": "Dunnellon",
    "state": "FL",
    "lat": 29.104746598164876,
    "lng": -82.088750388398
  },
  {
    "id": "captain-bubba-s-airboat-tours---rentals-5391",
    "name": "Captain Bubba\u2019s Airboat Tours & Rentals",
    "category": "Canoe & Boat Rentals",
    "address": "8660 W. Hwy. 40, Ocala",
    "phone": "(352) 840-0111",
    "website": "Facebook: Captain Bubba\u2019s",
    "city": "Ocala",
    "state": "FL",
    "lat": 29.2130840487753,
    "lng": -82.16356442920514
  },
  {
    "id": "florida-excursions--kayak-rentals---tours--4740",
    "name": "Florida Excursions (Kayak Rentals & Tours)",
    "category": "Canoe & Boat Rentals",
    "address": "20629 W Pennsylvania Ave., Dunnellon",
    "phone": "(352) 214-4585",
    "website": "www.FloridaExcursions.com",
    "city": "Dunnellon",
    "state": "FL",
    "lat": 29.106780719788272,
    "lng": -82.10187202178386
  },
  {
    "id": "kp-hole-park---canoe--kayak---tube-rentals-9566",
    "name": "KP Hole Park \u2013 Canoe, Kayak & Tube Rentals",
    "category": "Canoe & Boat Rentals",
    "address": "9435 SW 190th Avenue Rd., Dunnellon",
    "phone": "(352) 489-3055",
    "website": "www.KPHole.com",
    "city": "Dunnellon",
    "state": "FL",
    "lat": 29.099018968984517,
    "lng": -82.05545414576736
  },
  {
    "id": "ocala-boat-rentals-6119",
    "name": "Ocala Boat Rentals",
    "category": "Canoe & Boat Rentals",
    "address": "",
    "phone": "(352) 789-4954",
    "website": "www.OcalaBoatRental.com",
    "city": "Ocala",
    "state": "FL",
    "lat": 29.14987980989586,
    "lng": -82.10496710051886
  },
  {
    "id": "rainbow-river-canoe---kayak-9539",
    "name": "Rainbow River Canoe & Kayak",
    "category": "Canoe & Boat Rentals",
    "address": "12121 River View, Dunnellon",
    "phone": "(352) 489-7854",
    "website": "www.RainbowRiverCanoeAndKayak.com",
    "city": "Dunnellon",
    "state": "FL",
    "lat": 29.247025469167976,
    "lng": -82.1611128331957
  },
  {
    "id": "rainbow-river-kayak-adventures-5000",
    "name": "Rainbow River Kayak Adventures",
    "category": "Canoe & Boat Rentals",
    "address": "20729 River Dr., Dunnellon",
    "phone": "(352) 804-1573",
    "website": "www.RainbowRiverKayaking.com",
    "city": "Dunnellon",
    "state": "FL",
    "lat": 29.134479250584256,
    "lng": -82.10444787497791
  },
  {
    "id": "riverside-marina---boat-rentals-8297",
    "name": "Riverside Marina \u2013 Boat Rentals",
    "category": "Canoe & Boat Rentals",
    "address": "2500 NE 95th St., Ocala",
    "phone": "(352) 622-5166",
    "website": "Facebook: Riverside Marina Ocala",
    "city": "Ocala",
    "state": "FL",
    "lat": 29.165236129536616,
    "lng": -82.22808361360222
  },
  {
    "id": "silver-springs-state-park---glass-bottom-boats---kayak-rentals-1763",
    "name": "Silver Springs State Park \u2013 Glass Bottom Boats & Kayak Rentals",
    "category": "Canoe & Boat Rentals",
    "address": "5656 E Silver Springs Blvd., Silver Springs",
    "phone": "(352) 261-5840",
    "website": "www.SilverSprings.com",
    "city": "Silver Springs",
    "state": "FL",
    "lat": 29.221812725486796,
    "lng": -82.11893833925697
  },
  {
    "id": "swamp-fever-airboat-adventures-6158",
    "name": "Swamp Fever Airboat Adventures",
    "category": "Canoe & Boat Rentals",
    "address": "4110 SE Hwy. 484, Belleview",
    "phone": "(352) 508-5535",
    "website": "www.SwampFeverAirboat.com",
    "city": "Belleview",
    "state": "FL",
    "lat": 29.21956176419375,
    "lng": -82.110796825677
  },
  {
    "id": "the-blue-gator-tiki-bar---boats-2744",
    "name": "The Blue Gator Tiki Bar & Boats",
    "category": "Canoe & Boat Rentals",
    "address": "12189 S Williams St., Dunnellon",
    "phone": "(352) 465-1635",
    "website": "www.BlueGatorTiki.com",
    "city": "Dunnellon",
    "state": "FL",
    "lat": 29.094442447136817,
    "lng": -82.078554745934
  },
  {
    "id": "discovery-kayak---outdoor-center-2188",
    "name": "Discovery Kayak & Outdoor Center",
    "category": "Canoe & Boat Rentals",
    "address": "8045 NW Gainesville Rd., Ocala",
    "phone": "(352) 789-4954",
    "website": "www.DiscoveryKayak.com",
    "city": "Ocala",
    "state": "FL",
    "lat": 29.261460967766997,
    "lng": -82.21459477021348
  },
  {
    "id": "captain-nick-s-merritt-island-charter-fishing-5583",
    "name": "Captain Nick\u2019s Merritt Island Charter Fishing",
    "category": "Charters",
    "address": "Merritt Island, FL \u2014 Offshore & Inshore Fishing Charters",
    "phone": "(321) 693-0898",
    "website": "www.CaptainNicksCharters.com",
    "city": "FL \u2014 Offshore & Inshore Fishing Charters",
    "state": "FL",
    "lat": 29.27586630567489,
    "lng": -82.05159657003631
  },
  {
    "id": "captain-mike-s-lazy-river-cruises-5651",
    "name": "Captain Mike\u2019s Lazy River Cruises",
    "category": "Charters",
    "address": "12189 S Williams St., Dunnellon (sa\u00edda no Blue Gator Tiki Bar)",
    "phone": "(352) 637-2726",
    "website": "www.LazyRiverCruises.com",
    "city": "Dunnellon (sa\u00edda no Blue Gator Tiki Bar)",
    "state": "FL",
    "lat": 29.217710515175355,
    "lng": -82.2352721941471
  },
  {
    "id": "captain-bob-s-airboat-tours-6819",
    "name": "Captain Bob\u2019s Airboat Tours",
    "category": "Charters",
    "address": "12430 E Hwy. 40, Silver Springs",
    "phone": "(352) 726-6060",
    "website": "www.WildBillsAirboatTours.com",
    "city": "Silver Springs",
    "state": "FL",
    "lat": 29.248588984933182,
    "lng": -82.23833534358135
  },
  {
    "id": "ocala-boat-rentals---pontoon-boat-charters-4424",
    "name": "Ocala Boat Rentals \u2013 Pontoon Boat Charters",
    "category": "Charters",
    "address": "Servi\u00e7o m\u00f3vel (Marion County & Lake Weir)",
    "phone": "(352) 789-4954",
    "website": "www.OcalaBoatRental.com",
    "city": "Ocala",
    "state": "FL",
    "lat": 29.28477609952428,
    "lng": -82.17291899340205
  },
  {
    "id": "withlacoochee-river-cruises-9664",
    "name": "Withlacoochee River Cruises",
    "category": "Charters",
    "address": "12189 S Williams St., Dunnellon (sa\u00edda no Blue Gator)",
    "phone": "(352) 637-2726",
    "website": "www.WithlacoocheeRiverCruises.com",
    "city": "Dunnellon (sa\u00edda no Blue Gator)",
    "state": "FL",
    "lat": 29.278644659211487,
    "lng": -82.05369050182757
  },
  {
    "id": "swamp-fever-airboat-adventures---private-charters-6670",
    "name": "Swamp Fever Airboat Adventures \u2013 Private Charters",
    "category": "Charters",
    "address": "4110 SE Hwy. 484, Belleview",
    "phone": "(352) 508-5535",
    "website": "www.SwampFeverAirboat.com",
    "city": "Belleview",
    "state": "FL",
    "lat": 29.2084221890997,
    "lng": -82.13468159849364
  },
  {
    "id": "captain-bubba-s-airboat-tours---custom-charters-3316",
    "name": "Captain Bubba\u2019s Airboat Tours \u2013 Custom Charters",
    "category": "Charters",
    "address": "8660 W Hwy. 40, Ocala",
    "phone": "(352) 840-0111",
    "website": "Facebook: Captain Bubba\u2019s Ocala",
    "city": "Ocala",
    "state": "FL",
    "lat": 29.10817699983227,
    "lng": -82.06444576593701
  },
  {
    "id": "sea-tow-crystal-river---boat-assistance---on-water-support-4769",
    "name": "Sea Tow Crystal River \u2013 Boat Assistance & On-Water Support",
    "category": "Charters",
    "address": "Crystal River, FL",
    "phone": "(352) 794-6080",
    "website": "www.SeaTow.com",
    "city": "FL",
    "state": "FL",
    "lat": 29.168664198751166,
    "lng": -82.0444953051705
  },
  {
    "id": "river-ventures---manatee-swim---pontoon-charters-7000",
    "name": "River Ventures \u2013 Manatee Swim & Pontoon Charters",
    "category": "Charters",
    "address": "498 SE Kings Bay Dr., Crystal River",
    "phone": "(352) 564-8687",
    "website": "www.SwimWithTheManatees.com",
    "city": "Crystal River",
    "state": "FL",
    "lat": 29.211735194450508,
    "lng": -82.10104646526149
  },
  {
    "id": "captain-billy-s-crystal-river-charters-2422",
    "name": "Captain Billy\u2019s Crystal River Charters",
    "category": "Charters",
    "address": "12199 W Fort Island Trail, Crystal River",
    "phone": "(352) 665-5544",
    "website": "www.CrystalRiverFishingCharters.com",
    "city": "Crystal River",
    "state": "FL",
    "lat": 29.1570820262075,
    "lng": -82.14261198864864
  },
  {
    "id": "marion-county-parks---boat-ramp-access-for-private-charters-9698",
    "name": "Marion County Parks \u2013 Boat Ramp Access for Private Charters",
    "category": "Charters",
    "address": "Countywide Facilities",
    "phone": "(352) 671-8560",
    "website": "www.MarionCountyFL.org/Parks",
    "city": "Ocala",
    "state": "FL",
    "lat": 29.26254253456545,
    "lng": -82.154635344092
  }
]
