[
  {
    "name": "Dr. N.H. Jones Elementary School",
    "category": "Schools - Elementary",
    "rating": "9/10",
    "grades": "PK-5",
    "address": "1900 SW 5th St, Ocala, FL 34471",
    "city": "Ocala",
    "state": "FL",
    "lat": 29.182412,
    "lng": -82.156591,
    "id": "dr-nh-jones-elementary-school-school"
  },
  {
    "name": "Eighth Street Elementary School",
    "category": "Schools - Elementary",
    "rating": "8/10",
    "grades": "PK-5",
    "address": "513 SE 8th St, Ocala, FL 34471",
    "city": "Ocala",
    "state": "FL",
    "lat": 29.1804611,
    "lng": -82.1324796,
    "id": "eighth-street-elementary-school-school"
  },
  {
    "name": "Saddlewood Elementary School",
    "category": "Schools - Elementary",
    "rating": "6/10",
    "grades": "PK-5",
    "address": "3700 SW 43rd Ct, Ocala, FL 34474",
    "city": "Ocala",
    "state": "FL",
    "lat": 29.1493996,
    "lng": -82.1939982,
    "id": "saddlewood-elementary-school-school"
  },
  {
    "name": "Maplewood Elementary School",
    "category": "Schools - Elementary",
    "rating": "7/10",
    "grades": "PK-5",
    "address": "4751 SE 24th St, Ocala, FL 34471",
    "city": "Ocala",
    "state": "FL",
    "lat": 29.1639513,
    "lng": -82.0698719,
    "id": "maplewood-elementary-school-school"
  },
  {
    "name": "Shady Hill Elementary School",
    "category": "Schools - Elementary",
    "rating": "6/10",
    "grades": "PK-5",
    "address": "5959 S Magnolia Ave, Ocala, FL 34471",
    "city": "Ocala",
    "state": "FL",
    "lat": 29.1276924,
    "lng": -82.1360763,
    "id": "shady-hill-elementary-school-school"
  },
  {
    "name": "College Park Elementary School",
    "category": "Schools - Elementary",
    "rating": "3/10",
    "grades": "PK-5",
    "address": "1330 SW 33rd Ave, Ocala, FL 34474",
    "city": "Ocala",
    "state": "FL",
    "lat": 29.1743076,
    "lng": -82.1787683,
    "id": "college-park-elementary-school-school"
  },
  {
    "name": "Greenway Elementary School",
    "category": "Schools - Elementary",
    "rating": "3/10",
    "grades": "PK-5",
    "address": "207 Midway Rd, Ocala, FL 34472",
    "city": "Ocala",
    "state": "FL",
    "lat": 29.1208884,
    "lng": -82.0158727,
    "id": "greenway-elementary-school-school"
  },
  {
    "name": "Osceola Middle School",
    "category": "Schools - Middle",
    "rating": "8/10",
    "grades": "6-8",
    "address": "526 SE Tuscawilla Ave, Ocala, FL 34471",
    "city": "Ocala",
    "state": "FL",
    "lat": 29.1837076,
    "lng": -82.1319382,
    "id": "osceola-middle-school-school"
  },
  {
    "name": "Fort King Middle School",
    "category": "Schools - Middle",
    "rating": "2/10",
    "grades": "6-8",
    "address": "545 NE 17th Ave, Ocala, FL 34470",
    "city": "Ocala",
    "state": "FL",
    "lat": 29.1920499,
    "lng": -82.1154655,
    "id": "fort-king-middle-school-school"
  },
  {
    "name": "Howard Middle School",
    "category": "Schools - Middle",
    "rating": "B-",
    "grades": "6-8",
    "address": "1655 NW 10TH ST, Ocala, FL 34475",
    "city": "Ocala",
    "state": "FL",
    "lat": 29.196791,
    "lng": -82.1539149,
    "id": "howard-middle-school-school"
  },
  {
    "name": "Ocali Charter Middle School",
    "category": "Schools - Middle",
    "rating": "2/5",
    "grades": "6-8",
    "address": "3233 SE Maricamp Rd, Ocala, FL 34478",
    "city": "Ocala",
    "state": "FL",
    "lat": 29.169974,
    "lng": -82.1014119,
    "id": "ocali-charter-middle-school-school"
  },
  {
    "name": "West Port High School",
    "category": "Schools - High",
    "rating": "4/10",
    "grades": "9-12",
    "address": "3733 SW 80th Ave, Ocala, FL",
    "city": "Ocala",
    "state": "FL",
    "lat": 29.1548279,
    "lng": -82.249667,
    "id": "west-port-high-school-school"
  },
  {
    "name": "Belleview High School",
    "category": "Schools - High",
    "rating": "3.6/5",
    "grades": "9-12",
    "address": "10400 SE 36th Ave, Belleview, FL 34420",
    "city": "Belleview",
    "state": "FL",
    "lat": 29.0806927,
    "lng": -82.0866924,
    "id": "belleview-high-school-school"
  },
  {
    "name": "St. John Lutheran School",
    "category": "Schools - Private",
    "rating": "4.4/5",
    "grades": "PK-12",
    "address": "1915 SE Lake Weir Avenue, Ocala, FL 34471",
    "city": "Ocala",
    "state": "FL",
    "id": "st-john-lutheran-school-school"
  },
  {
    "name": "Ocala Christian Academy",
    "category": "Schools - Private",
    "rating": "3.75/5",
    "grades": "PK-12",
    "address": "1714 SE 36th Avenue, Ocala, FL 34471",
    "city": "Ocala",
    "state": "FL",
    "lat": 29.1713152,
    "lng": -82.086894,
    "id": "ocala-christian-academy-school"
  },
  {
    "name": "Trinity Catholic High School",
    "category": "Schools - Private",
    "rating": "4.1/5",
    "grades": "9-12",
    "address": "2600 SW 42nd Street, Ocala, FL 34471",
    "city": "Ocala",
    "state": "FL",
    "lat": 29.1443401,
    "lng": -82.1667437,
    "id": "trinity-catholic-high-school-school"
  },
  {
    "name": "Ambleside School Of Ocala",
    "category": "Schools - Private",
    "rating": "5/5",
    "grades": "K-8",
    "address": "507 SE Broadway St, Ocala, FL 34471",
    "city": "Ocala",
    "state": "FL",
    "lat": 29.186308,
    "lng": -82.1326633,
    "id": "ambleside-school-of-ocala-school"
  }
]